#name,x,y,alt,heading,pitch,roll,f,px,py,k1,k2,k3,k4,t1,t2
frame000001.png,16.07672148106882,-13.36208053348467,21.43087990863757,-43.76176907447967,57.05063527217181,-1.699805914025459,29.80963545052193,-8.607111067081718e-004,6.034445625206664e-003,0.1463257180718982,-0.7163134720697377,1.231617563039704,0,0,0
frame000002.png,16.04597344535498,-13.30846946767289,21.43590454391486,-44.08985700686137,57.28357565176438,-1.84949107292214,29.80090864696425,-9.051089007384134e-004,5.66234678604855e-003,0.1374887024110316,-0.6490096259873183,1.085012520004482,0,0,0
frame000003.png,15.92249511029037,-13.20786903695385,21.42986899764552,-44.66063683833828,57.83881312594181,-2.119403786623764,29.76662672627864,-1.834283046233968e-003,5.24430218531754e-003,0.1254813363328255,-0.570002116469623,0.8961665402274308,0,0,0
frame000004.png,15.71488793394164,-13.13896585247777,21.59038834593228,-45.09796379585403,58.66776865871618,-2.201510525481782,29.6907143859279,-2.311985086586511e-003,3.676990806202074e-003,0.1359114984899567,-0.5616955207869072,0.7580375337933942,0,0,0
frame000005.png,15.41101972156466,-12.97716211461931,21.96048341501121,-45.29810595700711,60.04264113619173,-1.94640302356081,29.54950589374951,-4.482202872543046e-003,1.930194247820051e-003,0.1290810644610765,-0.4960108031854518,0.6280194772235547,0,0,0
frame000006.png,15.02549658603381,-12.88686738380664,22.4626419370931,-45.25575728663323,61.54288808118232,-2.135645789403253,29.77283136660516,-2.998599075588906e-003,3.031732196844717e-003,0.1313592541665954,-0.5368843867571814,0.7872032280979059,0,0,0
frame000007.png,14.33551346936566,-13.00881679653532,22.98349839505386,-44.93311484559827,62.28250279704294,-2.698327839306514,29.96685454652569,-3.044581222057604e-003,6.317253109208954e-003,0.1227347157356785,-0.5431422347585698,0.9697716196381011,0,0,0
frame000008.png,13.3436227213208,-13.01219729238631,23.34143140631351,-44.26541637257902,62.92481116863737,-3.945781788569282,29.73050818418944,1.337469658916084e-003,6.709962557357726e-003,0.1705242354793098,-0.8225177592930496,1.358397623966325,0,0,0
frame000009.png,12.49953243719798,-13.11984840578856,23.7789562568389,-44.08868244418863,63.28726674524097,-4.673244708932941,29.70123953435325,1.431686379068861e-003,6.779576874204178e-003,0.1669373316521945,-0.7239075714470771,1.089634363051831,0,0,0
frame000010.png,12.02898829505643,-13.01237370349072,24.16913086215111,-45.96744553809661,63.74346069226388,-6.475062382003805,29.70200594536462,-4.023842828382801e-004,5.421210794573832e-003,0.1415946603083866,-0.5476016745156339,0.7273148802213444,0,0,0
frame000011.png,12.14037403412195,-12.60690598855306,24.54716824513984,-49.52910405181831,64.56463679218832,-8.542687454093942,29.74052500742885,-2.231881023690125e-003,3.765428341211653e-003,0.111631634098066,-0.379080871807678,0.4591714588567696,0,0,0
frame000012.png,12.63113578295693,-12.00028070779365,24.84487756540247,-53.46184523568359,64.60965323667465,-10.95977390028759,29.76149019164089,-4.63763462710664e-003,5.500749220468685e-003,0.1273500852663605,-0.5593695016244145,0.9213262347232193,0,0,0
frame000013.png,13.14740107436699,-11.02423210591776,24.94831506547909,-56.57714783623683,64.54256806858682,-12.44902003440384,29.67390718810717,-5.220766751765604e-003,5.567153654131368e-003,0.1302613248973638,-0.7093828449714737,1.334897976948324,0,0,0
frame000014.png,13.87045900173786,-9.973765702785055,25.21330234326883,-58.76965200062589,64.39892926035942,-13.61122744302375,29.78291302507912,-2.928645405766024e-003,6.424535694128118e-003,0.1989084728471259,-1.42949447890186,3.174763341692917,0,0,0
frame000015.png,14.52067847012468,-8.936902061520243,25.42103759733761,-59.78937762048744,64.30749821270747,-13.80811130485541,29.66353228177344,-5.500077753536591e-003,9.500103203586751e-003,0.220898898229562,-1.446697787648144,3.083166029984665,0,0,0
frame000016.png,15.15907878240758,-8.252115408955781,25.50576980209627,-59.76512459630212,64.96303670967511,-13.35400974026144,29.72242040482754,-5.638667515304504e-003,5.852972646802491e-003,0.2286185913338584,-1.450426825256668,2.900489063006491,0,0,0
frame000017.png,15.56530021375312,-7.725489687253937,25.44131580899031,-58.71274850771144,65.96058257973019,-12.08325820509486,29.75357627720025,-4.511630956307488e-003,4.079618784152248e-003,0.2077592033796677,-1.236273158392273,2.298954287006554,0,0,0
frame000018.png,15.94166542021232,-7.407732912943995,25.41757440709509,-56.67177846331215,67.21342854073802,-9.681310096613688,29.79093268614337,-6.110382741016654e-003,3.367308016310562e-003,0.1804306337624687,-0.9480836029824954,1.596929936272727,0,0,0
frame000019.png,16.0017820355501,-7.172161924658006,25.3660955629152,-53.65899879451817,68.26542984100999,-6.410249570803446,29.79925531777418,-5.369954656355203e-003,3.452330500762814e-003,0.150251813206003,-0.7015136428338912,1.072029013551683,0,0,0
frame000020.png,16.03605431745226,-6.940137208452954,25.25452055600684,-49.72820784485577,69.29075850444065,-1.923972751059742,29.82091458919167,-5.512994742360099e-003,3.260551842318056e-003,0.132967879084338,-0.5631258397134099,0.7816439441337792,0,0,0
frame000021.png,16.30622556033645,-6.61440364254203,25.17983462239222,-45.42647023402502,70.68209696764349,2.221061803939655,29.86914224868647,-4.164551130888292e-003,5.626545910633021e-003,9.399253364525184e-002,-0.2769701502363791,0.2518114425528014,0,0,0
frame000022.png,16.72026824660845,-6.353328718871904,25.16943775624278,-40.26205077941101,71.70128097689938,7.842680341546838,29.87878339319383,-5.436202619055502e-003,4.520114401217194e-003,6.960555059078502e-002,-0.1310509660451355,2.508980719925959e-002,0,0,0
frame000023.png,17.12160473020316,-6.036499727821449,25.03589154774069,-34.23941031996482,72.11761092389325,14.29966568769788,29.95999111832367,-5.086839386006506e-003,3.358360396118762e-003,4.455470260993528e-002,-3.250217063099774e-002,-9.889533576535484e-002,0,0,0
frame000025.png,17.51125233625082,-6.429085907660422,23.99635963995623,-11.82406940719336,69.63188717533123,21.97231899946843,30.41339800925203,1.50057143210006e-002,-9.573716194827595e-003,3.171089704330803e-002,-0.2911152419598707,0.5560327590969872,0,0,0
frame000032.png,9.818733632619992,-14.38499208531946,21.48710072890106,-4.308107867043895,51.10378801099119,2.8429478992787,29.76701304316008,-2.415003705742235e-003,5.303922348273607e-003,8.761990076386067e-002,-0.5272816676692632,1.199655444736428,0,0,0
frame000033.png,8.786858648523754,-14.64287206995457,21.6326459853811,-5.93735616165822,51.47231521365786,1.224691767513413,29.80726353195426,-4.144576353157734e-003,3.216281620846731e-003,0.1135229983658071,-0.6479245823005989,1.294271588161806,0,0,0
frame000034.png,7.915110066845692,-14.42238965743885,21.67420178321558,-6.68414497350043,52.7672703392603,0.7888996961590614,29.89885719385259,-4.059510593009035e-003,3.624984240268715e-003,8.931692006155592e-002,-0.3753807445884107,0.5904362800156243,0,0,0
frame000035.png,7.017588652200133,-13.81780634689938,21.59571035622923,-7.539047493713853,52.46917643937909,0.5097931306853468,29.87740966577827,-3.008222742299789e-003,5.407879781793786e-003,8.789650236919647e-002,-0.3589145866256913,0.5441325396972009,0,0,0
frame000036.png,6.01376725756257,-13.03707250458969,21.54474547892869,-7.953687707731893,51.86320111371554,0.5472849692376732,29.85706770771572,-3.480916469556763e-003,4.517283485268915e-003,8.169201782495267e-002,-0.3277264892809151,0.5141504804983673,0,0,0
frame000037.png,5.032078938142542,-12.44584834067392,21.52767506751726,-7.494160856136072,52.08391143846701,0.7561138522479024,29.89575193528631,-4.353052503743376e-003,4.385928606139349e-003,6.628405429494504e-002,-0.2065354984286665,0.2672789426307726,0,0,0
frame000038.png,4.154332115059695,-12.10251372541041,21.49355772201096,-6.260153208643643,52.41802452249866,1.015889447324892,29.98638901520232,-4.345297741994406e-003,5.687460515415488e-003,3.814734580674377e-002,-7.930283729570363e-002,0.1067048517672962,0,0,0
frame000039.png,3.217602335733228,-11.95096987761385,21.38836045406612,-4.696370865194094,52.89114528985115,0.8022988319591531,30.0013561609975,-3.693586677337363e-003,6.144131888882266e-003,3.375667686715871e-002,-3.655576392723829e-002,2.846589389557792e-002,0,0,0
frame000040.png,2.034494942212862,-11.95902011831012,21.29383373569478,-3.078572759250692,53.40672617584573,0.4532969610450962,30.08596328364785,-3.796832150656075e-003,6.635635768653643e-003,2.073468146020573e-002,3.860763902717546e-002,-8.54335867149645e-002,0,0,0
frame000041.png,0.9793355716317985,-11.84167951619115,21.20079077526706,-1.533351789573932,54.10815001940853,0.7416227024633107,29.99480022429403,-4.653023277749253e-003,6.145055351477463e-003,6.885683747411464e-002,-0.2421931775386186,0.4150246389697226,0,0,0
frame000042.png,0.1201362614498144,-11.70155093450171,21.14160062792503,-6.163527614848872e-002,55.10065937585684,1.176690742169477,29.93501164671873,-3.708892144725129e-003,5.271294824946315e-003,7.375854727232282e-002,-0.2392063672361082,0.3686582975179329,0,0,0
frame000043.png,-0.5369090293518475,-11.58733654835215,21.05897892030491,1.426727192352896,56.14971538549207,1.876204349774228,29.86151680964045,-3.033183756250717e-003,5.601405020807679e-003,9.37272484522214e-002,-0.3498956930077857,0.5549405003298317,0,0,0
frame000044.png,-0.8716698420013912,-11.49032965885461,21.06551680289643,2.805689765750775,57.26312309454389,2.869125200027789,29.86374155332208,-4.210448497663995e-003,6.542733989194042e-003,0.117359045494084,-0.5322487048579627,0.9206942118996996,0,0,0
frame000045.png,-0.9152383250435289,-11.34766339583971,21.38148980110886,4.216972150670939,58.50465947185393,4.433072144776121,29.95464025283367,-8.477150151445142e-003,7.24969704802959e-003,0.158245134439738,-0.9364583441722911,1.866303427366325,0,0,0
frame000046.png,-0.6463070277626588,-11.02103999168022,22.12286139831454,6.110290113941142,61.26595772205689,6.293494051435727,30.02916779458302,-5.309617893129672e-003,4.332191862242998e-003,0.1253503552253759,-0.6478991543383866,1.229777350913766,0,0,0
frame000047.png,-0.1701659652714922,-10.60950045412913,23.04532439611417,8.524253128278037,63.51201352344516,9.022962941082582,29.87904243374415,-4.587274238627459e-003,5.313857803760064e-003,0.1004629265354439,-0.3544851694824426,0.473746453164078,0,0,0
frame000048.png,0.438691376441305,-10.24328198399769,23.68691122511459,8.494359284424048,65.31036178620381,11.3586163178036,29.67725789980982,-5.298921611262155e-003,8.426894778308776e-003,0.1199037149961576,-0.6140092879447111,1.259879510225004,0,0,0
frame000049.png,1.138413629733884,-9.916060177306608,24.12281512896318,0.4510936590754752,66.10344265925981,12.23636174207046,29.75234805989856,-2.44405706092467e-003,9.467174365588455e-003,7.589430391287373e-002,-0.1974916826023273,0.2858471999444666,0,0,0
frame000050.png,1.84318660876698,-9.697032629866218,24.37427854304885,-15.43341306557053,66.38233747829663,6.81480053610263,29.68149351872806,-2.405303932584093e-003,4.492460711647521e-003,0.1429421022792677,-0.6749703418939479,1.163637506403318,0,0,0
frame000051.png,2.633284884806113,-9.484985666815149,24.20192173097478,-32.12431955699798,65.39870927126626,-0.1363839657756089,29.67807990038404,-4.686918786977292e-003,6.488355225588047e-003,0.129912898860329,-0.687682291500882,1.535238290827063,0,0,0
frame000052.png,3.311418142633107,-9.707671474026146,24.10895596958962,-42.47736731905838,64.19085952627002,-3.733306536725272,29.92846140168034,-1.113886669354035e-002,6.891770708326687e-003,0.1093913551914923,-0.3734589769674359,0.5472605561298653,0,0,0
frame000053.png,3.728374259927957,-10.21571569924778,24.10195403785848,-48.21616508380782,64.47984614778341,-6.277435321250239,29.8689984319282,-9.407332947718011e-003,3.288626236543326e-003,0.1018431256094071,-0.4193754844149355,0.6839501216635274,0,0,0
frame000054.png,3.86518334319441,-10.98753207401015,23.88504683823702,-53.00960058966925,65.4710376844871,-8.439831742972107,29.41867547755275,-3.538552224519524e-003,5.071974291564253e-003,7.548969982995114e-002,-0.3022121844068428,0.5580776127401996,0,0,0
frame000056.png,4.956357875704986,-14.54066899104177,23.55425396988089,-60.82336511527775,68.37025319968377,-12.01621639618207,29.78955814734884,-2.029136077649424e-003,1.153133906872414e-002,-3.270943385169191e-002,0.3761840739415598,-0.6246059315217037,0,0,0
frame000057.png,5.665554709448172,-15.96911168883511,23.13634756995219,-63.76848634762736,69.12450512241006,-13.30391741014503,29.60858082262606,-7.288234832730371e-003,6.678734702218607e-003,4.935639956415655e-003,0.1254689665191114,-0.2253868037347671,0,0,0
frame000058.png,6.359121924023151,-16.84816252817693,22.92141416582563,-65.97641804281558,68.38143657093552,-14.35241251798235,29.74422300757689,-4.675804005246485e-003,7.698102333763996e-003,3.013664649179364e-002,-2.514793886360553e-002,6.096898177304355e-003,0,0,0
frame000059.png,6.743533765238702,-17.29006440437541,22.55398176544772,-67.33101513889811,66.55330551223005,-14.25904615194698,29.62806791093444,-4.899030630558717e-003,8.275472950668881e-003,5.462719927737391e-002,-0.1458905928833961,0.2258627537261718,0,0,0
frame000060.png,7.133289378507522,-17.57809327773094,22.12577889610946,-67.74668163825534,64.00439162634598,-13.28828145907053,29.62677735648832,-4.505157079104736e-003,8.106500796334955e-003,7.960584618139915e-002,-0.3003225686746246,0.5139120667770931,0,0,0
frame000061.png,7.695780836825076,-17.81262654813116,21.74012940895969,-67.36661052512054,61.87150277993761,-11.50092983599655,29.59503806213384,-6.008581649098682e-003,7.19105596432517e-003,8.420202305164151e-002,-0.2722599861794268,0.370541603844791,0,0,0
frame000062.png,8.540339885631443,-18.08625376770246,21.17021628776552,-65.79556662081926,59.64936514883033,-8.595893029526215,29.79186471518671,-5.839931313021774e-003,3.714251542352128e-003,5.762785669208886e-002,-0.159425212932123,0.1938359039537008,0,0,0
frame000063.png,9.391425643856822,-18.36101830030768,20.66550204007693,-63.31541446758745,57.18314702452899,-5.121563300383587,29.80543802840231,-8.406006540912309e-003,4.749950214262038e-003,1.488312380171596e-002,6.90190368402737e-002,-0.147987632194977,0,0,0
frame000064.png,9.901230403819405,-18.79338146935889,20.58267890749679,-60.49873892191034,54.78354120362386,-1.760661537311559,29.68733613837591,-5.717389451634746e-003,5.294312000058712e-003,0.1145511865325023,-0.4871509186828406,0.7845589766365022,0,0,0
frame000065.png,9.91408472583284,-19.37774262655994,21.21114040632315,-56.31181980849817,52.1543019000212,2.546290135592132,29.75354123693532,-3.776744951895216e-003,3.480707914427868e-003,0.1270908689761267,-0.5042962190160514,0.6951685181107929,0,0,0
frame000066.png,9.414319482427688,-19.96593391442091,21.99793867516278,-50.98019154629015,49.64750866748947,7.681349759463004,29.7171666328482,-3.749266496265084e-003,2.594760438982112e-003,0.1607682779648155,-0.7403275126893615,1.172428849679949,0,0,0
frame000068.png,7.818205632378597,-20.89774167067175,22.14902206146958,-40.70903597820686,34.685787925034,16.27555452442484,29.81485713950233,-4.293416262242162e-003,5.663582695997404e-003,0.1355765283945556,-0.5443601491951728,0.797744214708067,0,0,0
frame000069.png,7.10675586138697,-21.05847549475831,22.41912978316997,-36.34514328201443,32.46589444617504,18.89406746729531,29.68225650656279,-5.552021780767365e-003,2.420328266224277e-003,0.1566482483820026,-0.6974507384278024,1.084954634615833,0,0,0
frame000070.png,6.548713137074847,-21.12604058483119,22.73399664592994,-30.940364413553,34.32077619714887,22.28282155064029,29.69282021957477,-4.577844384789713e-003,1.188097457247023e-003,0.1933177621534875,-1.11176095215896,2.184342926718939,0,0,0
frame000071.png,5.905372323243348,-21.15439025750184,23.23690809292437,-28.52118749453454,33.68172219258014,22.70369285183298,29.73350916878196,-5.028606759759197e-003,5.044236177374533e-003,0.2011474131353182,-1.190788215343741,2.361711393916763,0,0,0
frame000072.png,4.885628802597793,-20.91253314732145,23.79669207360548,-31.79220653850879,30.57658088805924,16.06668920982481,29.78680636437248,-1.170006681803369e-003,6.376144998055543e-003,0.1548905414925952,-0.8019205709621295,1.519930072359946,0,0,0
frame000073.png,3.720737184638112,-20.13833559368559,24.22872549556998,-34.93721246966528,24.86296332005198,13.80046983260817,29.51803078721744,-7.500719152557215e-004,3.962555535726553e-003,0.3376375871501863,-2.594046397239326,6.306450805110946,0,0,0
frame000074.png,2.924285527316233,-19.1436903113415,25.50603498716292,-36.62688187102706,24.07031400205535,16.45293349537581,29.82141066529913,-5.292674438592849e-003,2.835795196649528e-003,0.1537427834580961,-0.7707080766806819,1.35542715858485,0,0,0
frame000075.png,2.279441714025937,-17.79400605764786,26.24589099630946,-38.53064672501883,24.79966365199713,15.15095342294429,29.75861490755724,-2.944956562565309e-003,2.980020559651422e-003,9.37133269894848e-002,-0.3828491184442524,0.5988549638997172,0,0,0
frame000076.png,1.591541039778951,-16.59637367457466,27.02887825777687,-41.592004645474,26.08119040743633,13.43620806263092,29.79327753532333,-3.5049925672018e-003,3.448249684969172e-003,0.1335536347710217,-0.5446433540617901,0.7695716072834017,0,0,0
frame000077.png,0.9273031536829367,-15.75942715083675,27.71361815376031,-44.77272856210701,27.99589101828649,12.83142855376974,29.80179831187349,-4.182934893072459e-003,3.042777261567198e-003,8.119973105283569e-002,-0.3687789972925909,0.7492396555426467,0,0,0
frame000078.png,0.3670057072568884,-15.42863136771702,28.62360818265792,-47.49922486722529,30.20101472221808,12.71959360053187,29.82486128213277,-3.044217551596894e-003,5.830399536987966e-003,2.6504421835936e-002,-3.269212043283066e-004,4.742424801264179e-002,0,0,0
frame000079.png,-0.3023635137111285,-15.32308947797487,29.4416153242475,-49.63760513503158,32.35577639528893,12.60875054968796,29.63484608875026,-2.330985033330505e-003,8.516267654078372e-003,0.1193600647271637,-0.5199015965527495,0.9119198443708895,0,0,0
frame000080.png,-1.135828005995506,-15.44415915645094,30.38249971271871,-50.88378891529555,34.4937388580548,12.68234969254461,29.45075766674751,-3.690806533666776e-003,1.120621896949099e-002,0.1849404332468907,-0.8188532613825867,1.304623769387466,0,0,0
frame000081.png,-1.936003156483308,-15.45062322499018,31.10560880298564,-51.34503726222962,36.164173733867,12.2061756228722,29.55881955480985,-4.165345689345684e-005,1.718425463537101e-002,0.1536833964861762,-0.4652384657683585,0.516240196690681,0,0,0
frame000082.png,-2.21310700689628,-15.10998139773803,31.16552978714609,-51.15384835336859,38.08219420439981,11.76280139644781,29.76528581862461,-1.839562091311862e-005,1.903354142731039e-002,7.99653406473682e-002,-7.033225106999012e-002,-6.447875159684788e-002,0,0,0
frame000083.png,-2.245606096503101,-14.54588700382898,30.56601183778246,-50.45957646691942,40.44015460211057,10.75867264287554,29.75274179296843,1.129570906169251e-003,1.917476164927087e-002,0.1250140305845285,-0.8074795989902404,1.878950879225339,0,0,0
frame000084.png,-2.018935154445234,-13.9609882150631,30.08003038974299,-49.67069950383097,43.14507626988558,8.905720273713943,30.11072942403207,5.109063576131406e-003,1.734926005591949e-002,3.493013254807815e-002,-0.12226197699321,0.1834164661582028,0,0,0
frame000088.png,1.452488770657045,-11.01891636576901,27.32810034206363,-51.92844947269361,50.16019762801947,0.5997099041981238,31.05163111535243,-1.174807229604969e-002,-2.615782400501675e-002,-9.245579991667852e-002,0.4559624737115031,-0.6414646521952646,0,0,0
frame000089.png,1.94520163436477,-10.46625731941865,25.63481287796112,-52.40331676574749,48.49783191263212,-1.120941673383676,30.0470580252092,-8.040950158114936e-003,-6.584028650910494e-003,0.1920864988231591,-0.9673303899553605,1.622353867887644,0,0,0
frame000090.png,2.765916964201466,-9.959593383134774,24.51541684833659,-51.78625348646449,48.07464174992838,-1.760669417965034,29.82088706007912,-1.109811524462022e-002,-2.395587072838034e-003,0.2743774711015399,-1.595173463519985,3.047760823570857,0,0,0
frame000091.png,3.520320822903969,-9.366006556305173,23.80611639036752,-49.43709459713328,47.99989057702363,-2.993366057509492,29.87705474764233,-4.576739274117376e-003,2.951571640780254e-003,0.1976726135252259,-1.152840254239699,2.289587965349036,0,0,0
frame000092.png,4.190391627660562,-8.634920677716366,23.33741230039606,-45.1102593591571,48.98236808893988,-2.755304250281339,29.791134495485,-5.84540792721587e-003,1.866395079715302e-003,0.1139431901112805,-0.5161765442110241,0.8495023330948384,0,0,0
frame000093.png,4.898704058364569,-7.895031287789713,23.10040824569712,-38.88443454339781,50.48167818633203,-1.797617614346247,29.87483604440119,-1.258422236450009e-002,1.620234116760295e-003,0.1482180702284071,-0.7533417186774432,1.199070430069426,0,0,0
frame000094.png,5.513127456451113,-7.138975586994515,23.03200619136671,-30.89334982272239,52.53653879116479,-2.007116841957045,30.39899659062122,-3.019060783696309e-004,7.250428438023148e-003,-0.2673793237373884,1.467953785885725,-2.335661472159808,0,0,0
frame000095.png,5.694886355782065,-6.407961969574139,23.37062718809224,-21.77472900673803,55.23938748019685,-1.711390891967265,29.46833947468128,-2.870557455684571e-003,3.430742752812693e-003,4.772251523806473e-003,-1.769666395227117e-002,9.208634007382815e-002,0,0,0
frame000096.png,5.36632730183694,-6.512420285794006,24.12393275147129,-11.36129339800898,57.80321230238402,-0.1329490477989826,29.83092558169455,-1.46353996233865e-002,9.677259605419783e-004,0.1507232452278621,-0.7390729574778906,1.134788678208707,0,0,0
frame000097.png,4.524887187115834,-6.83547876976928,24.28214656133478,-0.5348354944687028,59.35729693036908,1.606040948508957,29.77056281577135,-1.099161019451155e-003,6.515010645406354e-003,0.1984572703695518,-0.8641459967570879,0.8124982170735109,0,0,0
frame000098.png,3.306787074204408,-7.203659998082756,24.37598120562308,8.471323710136248,59.20666629781768,4.444107112156328,29.7787431622842,-9.287007835222891e-003,8.928648381177006e-003,0.1136016888223072,-0.5653675718103222,0.9528257451839777,0,0,0
frame000099.png,2.150116602820473,-7.802741544276252,24.47956919906293,15.27538859575747,58.75021777006506,7.899665963154727,30.00781458084868,-5.929493159376779e-003,7.293256592560606e-003,0.1231139251550201,-0.6627226804828544,1.342564729987573,0,0,0
frame000100.png,1.007082051632623,-8.116383896042622,24.28591172365341,19.58708064599769,58.90134077908811,10.58106561875059,29.96688223204469,-5.196828215897988e-003,7.454717679063886e-003,5.978208882883481e-002,-0.1703239528729679,0.2177904883675617,0,0,0
frame000101.png,0.2114679244629536,-8.181830987420032,23.99236802694944,21.48417494635162,59.50126760287696,10.79976562145965,29.92988524453872,-4.220011352023778e-003,7.125215778170978e-003,6.555631190037621e-002,-0.1937481150349863,0.2354531440620241,0,0,0
frame000102.png,-0.6458174775192727,-8.103922379627278,23.58999209166684,21.0593385918974,60.62317784812437,7.520431517343426,29.93316013256269,-7.063264283503975e-003,8.117871946594293e-003,2.585366958905897e-002,-1.085431278871746e-002,-3.501845891020797e-002,0,0,0
frame000103.png,-1.741957845221859,-8.023096247723576,22.90158390277475,18.36428038717801,61.90518498598145,2.847689392136089,30.04876540071546,-6.559068011731691e-003,8.582122685648281e-003,2.036756037136114e-002,-2.653068783906028e-003,-1.822216241830087e-002,0,0,0
frame000104.png,-2.913185188572254,-8.135077172585735,22.03237222167698,15.36540094805072,62.32851271953598,-0.2522750043608275,30.13174158144785,-5.517578061050554e-003,8.334917941467889e-003,7.983794091679994e-002,-0.388107103365383,0.7377809518882853,0,0,0
frame000105.png,-3.777482423105746,-8.153239020024131,21.13523449843591,13.71715758971346,62.57464790212413,-1.705828012264826,29.96367817712618,-4.723441113728932e-003,4.260956916577227e-003,9.546274020428314e-002,-0.4697166995887612,0.8309302669330255,0,0,0
frame000106.png,-4.275078923774711,-8.007124348272139,20.30405441052127,12.70356057087598,62.36312013406435,-2.600464207826747,29.88460644286088,-3.834455512756139e-003,2.910246612484864e-003,0.115712291598786,-0.6026460196568263,1.11436319322613,0,0,0
frame000107.png,-4.586364067068804,-7.79498233405478,19.4888095308169,11.56064206024832,61.90687969247639,-3.632943479139996,29.85623957635699,-1.419636108674557e-003,4.82968905646432e-003,0.1112595168979915,-0.5219163438455966,0.9637084188627408,0,0,0
frame000108.png,-4.699298705978656,-7.61334387482312,18.85152990420654,10.00803535405508,60.80134125774492,-5.035074594609199,29.81513725931955,-9.98094100046254e-004,4.158511428555283e-003,8.377568906538249e-002,-0.3671201856316592,0.6948799558378284,0,0,0
frame000109.png,-4.620407954541133,-7.625546475385726,18.12186669888572,7.940354144464958,57.9340331439285,-6.388568855171812,29.97287933830131,-5.383512680717046e-003,6.208308469289561e-003,0.1021153997878014,-0.4164745243693277,0.6564079987747417,0,0,0
frame000111.png,-4.070889721994529,-7.373655012116092,16.8137733221135,5.821943862458796,48.12571124490609,-6.635559367954518,30.00813896101003,-2.767545711113196e-003,4.331079763429025e-003,5.946829637086264e-002,-0.2245201488339151,0.368879810434346,0,0,0
frame000112.png,-3.619993072025133,-7.25273947206854,16.51061979995188,5.168698512942726,44.68896365440648,-5.74022819365323,30.02528782178888,-3.49926574150665e-003,5.948462297616496e-003,6.325905641808884e-002,-0.194027301175358,0.247563997991972,0,0,0
frame000113.png,-3.243256743345598,-7.24856112954415,16.32062244047384,4.358314245738449,42.36684237519949,-5.051370151965469,30.07060821496358,-4.388799718006419e-003,6.148451459942139e-003,5.393125555374432e-002,-0.1708489768275899,0.2488481382570061,0,0,0
frame000114.png,-2.865126717471871,-7.144957242876314,16.08982714496437,3.019784411087259,40.97834177613778,-4.84194565273448,30.01317180782921,-4.395431403864941e-003,6.85159615817126e-003,7.784764847672933e-002,-0.3317154699693424,0.5655843687714067,0,0,0
frame000115.png,-2.460582266390221,-6.798129770613263,15.72014838455996,1.190703665350409,40.7928942219435,-4.988267866756019,30.00472775460037,-3.391231251161112e-003,4.891509010056458e-003,8.236158621223001e-002,-0.3208463984555888,0.4765800954450071,0,0,0
frame000116.png,-1.801068198415113,-6.355454202369134,14.93704037232329,-1.044833083406376,42.76702259006811,-5.127574210346114,30.0431952600677,-3.576924125671468e-003,3.806112821918354e-003,2.368998969437503e-002,1.913366638794748e-002,-0.1065825271433791,0,0,0
frame000117.png,-1.342661681400994,-6.13688365822515,14.30157682310766,-3.202609009165462,46.94411619786808,-4.942982777378481,30.42259222862393,-4.775496966266765e-003,5.027790328733316e-003,-5.649054225877589e-002,0.3289028691188098,-0.4611750986117077,0,0,0
frame000118.png,-1.100221649048519,-6.001661410041166,13.56725976861836,-4.664086171977555,50.7234431371269,-4.481882884914061,30.53935504980721,-9.858653062429156e-003,7.036846168468636e-003,-2.108031253760588e-002,0.183747554112277,-0.3084144734811701,0,0,0
frame000119.png,-0.8933495227260206,-6.019783028435326,12.67952093777245,-5.593655697402487,54.8937863563156,-3.979983450993807,30.46403299873199,-8.300612764037121e-003,1.881137894235945e-003,-3.739271816553219e-002,0.1753551588240465,-0.2222211762471467,0,0,0
frame000120.png,-0.4800110220670368,-6.110885561978249,12.10563437296263,-6.134712410641347,58.29095148681349,-2.531007784360745,30.38376640337053,-7.805229568744239e-003,4.110809471718361e-003,-2.49735487401593e-002,0.1685299675474476,-0.2479526045359184,0,0,0
frame000121.png,0.3288220465121847,-6.596980994773833,12.27467884238958,-7.540649683078773,61.24396764975867,-0.8937162523727146,30.23160148898796,-7.551329140449087e-003,5.070182141216887e-004,-5.433737816899162e-002,0.2828390335630029,-0.4277204096374775,0,0,0
frame000122.png,1.077270973984525,-7.226051718037517,13.24998551760285,-10.59276628388601,62.87410530874494,1.489166171621169,30.21862827005524,-1.087093479657205e-002,6.40151893742658e-003,-1.440810153727858e-002,0.1152798375362977,-0.1490789738799002,0,0,0
frame000123.png,2.110861853059602,-7.937958983804146,14.4068541235532,-14.60000538372261,63.85925283256607,1.904082666328818,30.13285186754975,-1.54935234207016e-002,6.715815270638518e-003,3.001025104601886e-002,-5.566754022473118e-002,4.665412071554414e-002,0,0,0
frame000124.png,3.348285152090392,-8.545058739043883,15.43118503190989,-18.83630638129872,64.25886834812984,1.603218250985731,30.15590475858033,-1.379909365728772e-002,8.516237008404879e-003,1.601704329590168e-003,0.1344693140812597,-0.2645387317131669,0,0,0
frame000125.png,4.313948367881283,-9.122944384573849,16.00041540568692,-22.37742264792516,64.55898485565014,1.604586749547927,30.02651803886537,-8.40607239153407e-003,7.751442897594349e-003,5.256065092551402e-002,-0.1224092486211071,0.1090961359844726,0,0,0
frame000126.png,5.207925956459921,-9.534019495983131,16.14585572828916,-24.44728840951178,64.81615776528214,2.529896040534527,29.86075884410266,-6.707862034482984e-003,5.312433762941685e-003,0.1007709700940683,-0.3597989147925856,0.4809915589634386,0,0,0
frame000127.png,6.079240933661207,-10.01870680701367,16.23861591363486,-25.0664192016687,64.76061341619548,4.006872569381097,29.85851648859214,-7.290134021363103e-003,5.690396486907227e-003,0.1347397912623032,-0.5429233142990684,0.7844135162350271,0,0,0
frame000128.png,7.305457375389763,-10.8335613156749,16.58863770921536,-24.7462172986177,64.42035186139604,5.066507370974993,29.83768772107783,-8.944135494487086e-003,6.426607058132111e-003,0.1598828091080609,-0.7236415960405491,1.168848281698823,0,0,0
frame000129.png,8.709393513142231,-12.0171766840277,17.25015456096829,-24.44183490553903,63.80875427083457,5.345349973446551,29.94244654323616,-9.318166462142671e-003,7.15802100239963e-003,0.1465607658445587,-0.7166762768364249,1.278132176459271,0,0,0
frame000130.png,10.058001643006,-13.19360579551024,17.74313384458305,-25.09514263307063,63.05899734139321,3.813343699940644,29.87426433873076,-6.557461460417039e-003,6.780822427004197e-003,0.139109169537636,-0.6778654059604824,1.223770275671168,0,0,0
frame000131.png,11.24529538187373,-14.14587982223069,18.15089769634331,-27.16824731998342,61.97776854975495,0,29.8895641851019,-5.980527213318732e-003,7.075770602470052e-003,0.1198461025030438,-0.5355882126768741,0.9542460215656617,0,0,0
frame000132.png,12.44297515141231,-14.63549071719869,18.31112632812501,-29.41109201583832,60.96874768868172,-3.161917740961215,30.00265538980118,-6.050046750458687e-003,5.544041901772186e-003,0.1150775169967401,-0.507537522529295,0.8109188620008679,0,0,0
frame000133.png,13.75699225934402,-14.69000455407907,18.24542053227864,-32.67289122939706,61.51342450100155,-2.847771363776523,29.90405542598038,-5.350482922474738e-003,4.032305865993061e-003,9.903917464955495e-002,-0.4325556975326694,0.7563664472457396,0,0,0
frame000134.png,15.00967044141428,-14.68173164057411,18.42847486572163,-38.77138645108251,63.86135070930597,0.689585265034891,30.08979963524443,-5.270541935089396e-003,5.022421601555777e-003,0.1038951461582927,-0.3769220579317818,0.5443355103532236,0,0,0
frame000135.png,15.43377666820481,-14.21357606933127,19.07036085667877,-44.12067138136381,68.87793539510747,1.890937634500058,29.44138039767702,3.324338816523565e-003,5.574976886981727e-004,0.1763612705293284,-1.186299810402438,2.342322431313999,0,0,0
frame000136.png,15.8438552292713,-14.18429862874491,20.07041557269386,-45.18963870452742,72.17443711147264,2.782224877274901,29.63376057063329,-1.775981967273089e-003,3.4408545920513e-003,0.126591665499023,-0.6139994242149642,1.082108603034462,0,0,0
frame000137.png,16.20945988154842,-14.1464141912684,21.17850241809652,-43.4063811697472,75.70892115828806,4.183683743496022,29.81487977760317,-2.044763189879726e-003,4.513551628352694e-003,0.148826092955141,-0.6997944876457113,1.101533588956886,0,0,0
frame000138.png,16.46648741988698,-13.98643347062261,22.44112641438915,-40.56088661568519,80.40949825203899,5.854235968124407,29.85046611819658,2.870304294089004e-005,1.405547934278859e-002,0.1876546410143631,-0.8787988368384729,1.668348721362709,0,0,0
frame000139.png,16.48785300812286,-13.90131138165835,23.26900361058919,-39.05133202171366,85.17257535515046,6.275266663497802,29.8072806433369,-3.669157398919747e-003,-1.129042435848835e-002,3.499633827877461e-002,-0.1433397979961696,0.2062943393854461,0,0,0
frame000140.png,16.24751121408551,-13.86999059240778,23.46654244355766,-42.40245339405657,83.00569133352435,1.579176521235024,29.97439332256621,-1.524050275286644e-003,1.225628139370857e-002,0.105902251506941,-0.2311321095675036,0.2592896842605815,0,0,0
frame000141.png,15.47039280823216,-13.85034850631027,23.50957994802715,-42.1501190661182,79.67651612254255,0.5420728434446879,29.8782791011628,-8.003403113346716e-004,3.012050763178832e-003,0.1118025773489209,-0.4006736337874047,0.5389105016578107,0,0,0
frame000142.png,14.44963338887646,-14.04917554975659,23.87793223037699,-39.68636158609033,77.79510872462762,2.007407818533708,29.8713516792966,-2.209268277455624e-003,-1.131432198420377e-002,6.744079203699357e-002,-0.3320078068245548,0.4683519628262001,0,0,0
frame000144.png,11.62104992369539,-14.95053276520783,24.31403689144331,-47.07811298733711,72.68213233029041,2.141635975114369,29.66968436671713,-2.088171482544901e-003,7.725571421578931e-003,0.153717888694906,-0.7020879386360793,1.133823758633263,0,0,0
frame000145.png,10.58582608053755,-15.57158789329928,24.22684840270879,-53.92636428698471,72.02560444390429,-1.003712034818426,29.82767258379105,-4.918868093892827e-003,6.017922285144063e-003,3.675276667431039e-002,-1.289169896515772e-002,-2.760341670792161e-002,0,0,0
frame000146.png,9.774815526494876,-15.92842558241576,24.08771615329081,-59.87911305142013,70.98821338343392,-4.052546559958401,29.70891805726717,-1.630921500834616e-003,9.134292008820636e-003,3.831707594650946e-002,-3.16903820421084e-002,1.045847920325822e-002,0,0,0
frame000147.png,9.239084154864646,-16.29337637867143,24.01236211895062,-65.01645606428033,70.06901272116968,-5.372676598815846,29.55553915497101,-4.81892653936674e-003,8.915636144983898e-003,9.941290941996454e-002,-0.4055115416547719,0.682831020253959,0,0,0
frame000148.png,8.825422893694517,-16.62319302973205,23.93328472147435,-70.00465060815753,69.51674243655108,-5.911396440170708,29.45551586328035,-5.89419355099692e-003,7.80786789933852e-003,0.1336574246290911,-0.6098939687708921,1.039434534544583,0,0,0
frame000149.png,8.460120586682342,-16.95014045559092,23.8855538974766,-74.81777609664184,69.26254524857045,-5.454545422595172,29.49472550155408,-7.627017069689333e-003,8.27710255333412e-003,0.131076153556844,-0.5466609737615113,0.8810196848587354,0,0,0
frame000150.png,8.263161694609217,-17.02423463370523,24.10290790662361,-79.13281277217662,69.85784705120514,-4.650873939327574,29.61330018861641,-8.819290119935951e-003,7.166135277273506e-003,0.1005044398611964,-0.3245413961145311,0.3854774921968184,0,0,0
frame000151.png,8.05534036185823,-16.68689373664409,24.57355021432974,-82.37333696875842,72.30123278610819,-4.383492148194206,29.30281353494293,-1.476266433006582e-002,8.959801604446699e-003,8.242249260563626e-002,-0.1445295063372551,4.652409844067638e-002,0,0,0
frame000152.png,8.467446424032449,-16.45051776359231,25.15927384664394,-84.46499588078075,77.41850283798578,-5.506979230646502,29.63532008298987,-7.481383244014205e-003,8.3901002341967e-003,0.1879807416777342,-0.9539217732741352,1.652963132339671,0,0,0
frame000153.png,8.737264419929641,-16.15073434838293,25.13336701262238,-85.35409391261075,80.40136587983467,-6.235857537220737,29.77115744127097,-8.720697519176849e-003,9.014718406877472e-003,0.191272484197021,-0.9138920290804931,1.548854870401013,0,0,0
frame000154.png,8.407892325877032,-15.95612159445909,24.47389467050576,-81.60217857939375,79.35643361924636,-3.535159517744309,29.27604235294721,-1.092184900957566e-002,1.129010485231044e-002,0.1639560423227089,-0.5470458578510913,0.6270194501543171,0,0,0
frame000155.png,8.338132909458622,-16.0684179840545,23.60993013135099,-76.94993047364056,72.67520104243947,-0.9532265625233025,29.39411772237377,-1.008116720986273e-002,1.325909908614125e-002,8.647456890971575e-002,-0.2531798748181184,0.3014694861772149,0,0,0
frame000156.png,8.630269641286727,-16.5148162423047,23.03033568415579,-73.82680422756734,67.69674881676607,-0.670057351380392,29.50436292479829,-1.098430462310408e-002,1.093180857304944e-002,0.1312206768414157,-0.6736536607154368,1.251886154015488,0,0,0
frame000157.png,8.974669076116236,-17.39127727598825,22.4928954935276,-71.45390293917892,63.31903943916806,-1.551828038128569,29.55811597640284,-4.222286447999424e-003,8.189439700784914e-003,8.156477916802954e-002,-0.1677359901034197,0.1060172076580611,0,0,0
frame000158.png,9.604158633333618,-18.7257549197405,22.05084259538895,-69.29556337280275,59.23414768740573,-2.166060119378087,29.80320567878285,-5.271075159687584e-003,7.050502648794791e-003,5.408910307411116e-002,-5.774547181820552e-002,1.101208292882595e-002,0,0,0
frame000159.png,10.12691895411885,-20.03762672355726,21.57048120295454,-67.92105904360726,54.49317269568637,-3.229352108928188,29.79172012829758,-9.176585276463516e-003,6.181679520554877e-003,8.04202654929586e-002,-0.3281874885970489,0.5921998432019668,0,0,0
frame000160.png,10.83605999277843,-21.11462280429661,21.42297414988746,-68.2061983365126,49.02502855667534,-4.076185665843737,29.63287199282903,-8.639886725567666e-003,5.266159351676026e-003,0.1772031246472981,-1.042584059622512,2.115438615967373,0,0,0
frame000161.png,11.58610226202411,-21.87498273396578,21.79439775886848,-68.9424386671904,46.31132065890102,-5.027479061685177,29.6216228500337,-3.846175941653268e-003,4.394409222229783e-003,0.1849933908797069,-1.020960826841478,1.915739476564066,0,0,0
frame000162.png,12.72763052828089,-21.6554042785741,22.3470825254134,-65.12090641540033,46.61077626232627,-5.767466981985456,30.01441415879313,3.921879303664039e-004,9.021020757167838e-003,0.1432532616940365,-0.593457581572575,0.9957264124963395,0,0,0
frame000163.png,13.70866068304354,-20.6158889850966,22.51879798406829,-55.86105549583077,48.75596633540915,-6.536920741850896,29.81677402495261,6.097564041556826e-004,6.393582806583729e-003,0.1716222857828151,-0.7643527432877285,1.123860707358659,0,0,0
frame000164.png,15.05770313757193,-19.55543260071837,22.60830722574186,-45.59059042733249,50.80077690464682,-4.292760962364625,29.80689060789299,-2.274873993958432e-003,4.529031343267676e-003,0.1328682441338988,-0.5489129054472349,0.8051533840972497,0,0,0
frame000165.png,16.38213014058902,-19.02840311104066,22.66401551308876,-38.49830170543825,52.82365091439611,-2.554973261639435,29.85161310966457,-3.515185247197449e-003,5.472606755409086e-003,0.1384480367730041,-0.6500088505134173,1.122105044820442,0,0,0
frame000166.png,17.29561062810492,-18.90260530552783,22.64234779062523,-37.11198232162229,57.79912931660093,-0.3370406370006552,29.75722582928746,-3.548604804672763e-003,1.301654982849438e-003,0.1056383386350185,-0.3862000607280009,0.5486186631209019,0,0,0
frame000167.png,17.97148773621056,-19.42473449301794,23.05359360697764,-39.3879730527776,66.54561834092485,4.898450980690252,30.01497901486836,-4.181469867128146e-003,2.289244288385357e-003,0.1635633331234275,-0.6623004731934027,1.037713253743992,0,0,0
frame000168.png,17.99422810510907,-19.76798925832435,23.24999832415862,-43.04327896317357,72.17453124267826,8.762605864148592,29.98447238152103,-4.280701603113243e-003,-1.119259020681972e-003,2.005818257554055e-002,3.935992652160349e-002,-0.1016152265795046,0,0,0
frame000169.png,17.8913144802808,-20.14701338010524,23.26694785011475,-49.59990627365008,74.83291935510958,10.35312332251575,29.88973211901406,-2.508564214424601e-003,4.989771544655896e-003,1.902438797375891e-003,0.1532651304980371,-0.2725513465346796,0,0,0
frame000170.png,18.00362996568168,-20.5528653828111,23.42213020312108,-57.75657546628137,75.30516302318826,11.65375308486509,30.09959446454054,-5.826005923566918e-003,4.878503917351495e-003,-1.691167936758989e-002,0.2484993855685105,-0.4000496909729089,0,0,0
frame000171.png,17.99674665182429,-20.79361013049781,23.36155713124513,-66.00783382522714,74.20273852730821,11.50298071324971,29.89992394246664,-3.578076424118602e-003,5.844296124083266e-003,3.271960492932596e-002,6.973382680916114e-003,-5.13030030238165e-002,0,0,0
frame000172.png,18.04197032795803,-20.91131820770216,23.23295819838113,-72.16004911442138,71.54963607503184,11.15276749511612,29.75306083926955,-4.46213678633372e-003,6.251981041655337e-003,7.811521237989079e-002,-0.2334681408876808,0.3127351617024626,0,0,0
frame000173.png,18.22329442651033,-20.86151241977417,23.03896778914268,-75.76833745708265,68.72948703510326,9.525525394693116,29.76395058435378,-2.782460227659963e-003,5.990597819531608e-003,0.1230632195011814,-0.5429382500578283,0.9354590994128915,0,0,0
frame000174.png,18.33092787880941,-20.82115694014454,22.85912619590692,-77.9026456776573,66.88595741612809,7.753800663350418,29.77385092602608,-2.596579284886651e-003,6.366877277511107e-003,0.1143462729311534,-0.489945627409476,0.8681314992661201,0,0,0
frame000175.png,18.32693655703601,-20.80734643783501,22.76066270308286,-80.44139164462403,66.08186657748837,5.659217815656656,29.75201920434776,-2.987310528167936e-003,6.59170762371773e-003,0.1262187184868387,-0.5971353319396147,1.11410546391994,0,0,0
frame000176.png,18.33700788979018,-20.92070193599479,22.83451312285848,-83.35373711116449,66.11431111410812,3.432414296755846,29.77250777773446,-3.95752687071889e-003,4.592303258556206e-003,0.1225522186883677,-0.5725722720301778,1.052222860083887,0,0,0
frame000177.png,18.28862232027436,-21.14972632236149,22.95513367312359,-85.47450437245526,67.37219704086627,1.685070874255599,29.76757242322784,-5.756389652160843e-003,3.987841202879984e-003,0.1109190130493784,-0.4389533613421426,0.6982823251276354,0,0,0
frame000178.png,18.1256921827663,-21.22464376570398,23.19581750809402,-84.74274941374922,69.51526080550686,2.847995501862119e-002,29.79616703854342,-4.714699136908224e-003,4.059868808205386e-003,0.1153188432846734,-0.4773019899379655,0.7719995922723187,0,0,0
frame000179.png,17.900688149611,-21.17741249508679,23.30709340556987,-79.24782009454751,70.70367021855709,0,29.87680029084834,-3.240427944014445e-003,3.753777117495397e-003,0.1018098179492147,-0.379274596535028,0.570935250784891,0,0,0
frame000180.png,17.36625540193354,-21.08887801778976,23.23052505946107,-69.49284492744627,70.06789909594124,2.724484007523627,29.73125817014592,-2.418280765894718e-003,5.42039756521352e-003,0.1301597253096336,-0.5812480017807307,1.013905865013129,0,0,0
frame000181.png,16.87845690052979,-21.27866498052195,23.22373618510269,-59.0628570272026,68.09924480572023,6.248421196730976,29.92175681749551,-8.802456825305295e-004,4.816777106482041e-003,9.523787242557405e-002,-0.3461074096010432,0.5344470593701849,0,0,0
frame000182.png,16.17058607741295,-21.66560611257425,23.01213353145494,-50.41190886049437,64.32797363666728,7.430409164956504,30.03941618893226,-1.54851558105109e-003,8.33830185739858e-003,0.1262284074298844,-0.4490357289514423,0.7216907512387173,0,0,0
frame000183.png,15.51128944014268,-21.80184062566422,22.50391455472992,-42.47468352052596,61.72697357862421,7.638312790179223,29.93278365705721,-1.090400283454401e-004,6.806309343577328e-003,5.217252992170891e-002,-0.1013778177138604,8.494372464983128e-002,0,0,0
frame000184.png,15.35186906819871,-21.82851641745302,22.5959576289131,-34.41318883830291,60.62468631503025,8.019125252277686,29.90441871231291,-3.213248250849423e-003,5.482983066228716e-003,9.034719895014767e-002,-0.4078432707937507,0.7407814704674228,0,0,0
frame000185.png,15.47997011633514,-21.85777737639451,22.72517230932992,-27.32728456749093,61.27712039472562,8.463864018981573,29.87131860769704,-3.778080015854476e-003,4.689846226789131e-003,0.1457403880697292,-0.6919372113020033,1.259278962963246,0,0,0
frame000186.png,15.50549070293692,-21.80316971143276,22.84262112706761,-22.81875918035435,63.49679437424249,8.513327854882775,29.72357015236565,-4.197618420052212e-003,6.586855371797767e-003,9.011292536487958e-002,-0.2468572218974849,0.3101346953605081,0,0,0
frame000187.png,15.52559755963492,-22.16992927867787,23.14381182348343,-21.57243444808254,67.28946970582849,7.306682777833378,29.85094206387359,-2.581917660527139e-003,3.925758077235453e-003,0.1802051035301258,-0.9527328991865932,1.735588302750372,0,0,0
frame000188.png,15.35872641499743,-22.36673822465768,23.2587390145969,-23.7311753050925,70.19458104776722,4.688779543952486,29.82060300757058,-2.302348348566253e-003,4.39770352705545e-003,0.1700576186306681,-0.7743236333565171,1.210416446850988,0,0,0
frame000189.png,15.10137191940597,-22.57962853241898,23.37100401064767,-28.04067754283933,72.71462906511661,1.623850693781699,29.67459598164946,-2.172676230188995e-003,3.373217427273816e-003,0.200082496454836,-1.069575019021529,1.919360100351875,0,0,0
frame000190.png,14.90095348726363,-22.81486432559627,23.49183002964455,-33.61855004236297,75.22791588591679,-0.7760615589202486,29.71816161852531,-4.506666171365131e-003,-5.509569011242681e-004,0.1584484196345108,-0.8683536975187024,1.638835583519832,0,0,0
frame000191.png,14.80927056890177,-23.0020953240629,23.58691902206281,-38.90323370210681,76.38490679706423,-2.390292753408525,29.73890856446953,-6.143329872846414e-003,1.591959486097532e-003,0.1671266794421578,-0.7728702422344531,1.227114343894034,0,0,0
frame000192.png,14.65014673681589,-22.96798485661832,23.58050035317902,-43.36145657146709,76.89380534304057,-3.376000524677796,29.74590704039412,-5.173769615326246e-003,1.2370463610881e-003,8.027618143208765e-002,-0.2258580233590917,0.2584799359083517,0,0,0
frame000193.png,14.60419873559797,-22.73409552512038,23.46043799861495,-46.8590627850359,76.25995064340236,-3.486250210024724,29.76586450121621,-3.36837242487201e-003,5.183288812222616e-003,9.612741015432769e-002,-0.2941628310953394,0.3820390609737984,0,0,0
frame000194.png,14.56270277436239,-22.21958790799884,23.30966050620125,-48.83814218971028,74.47376433791709,-2.111591475706433,29.85700507013372,-2.844022584939509e-003,7.830858445209114e-003,5.626960910350163e-002,-5.384687157487313e-002,-3.179963718555194e-004,0,0,0
frame000195.png,14.46760686848294,-21.24546554607634,23.17269159379149,-49.64427782619928,72.09690030547587,-0.3174066035277733,29.77497374620364,-3.409451496922991e-003,8.5375948140505e-003,5.237027257051283e-002,-5.11179830217258e-002,-9.738639698918318e-003,0,0,0
frame000196.png,14.46911483344469,-19.99968111899902,23.03866205009062,-49.15301764259821,69.88313935475549,1.161082067924324,29.74300043170573,-2.732265627997952e-003,8.615398204791229e-003,5.664207545996119e-002,-0.1235763317756495,0.1557448367376591,0,0,0
frame000197.png,14.69732627274805,-18.66571824146164,22.98972064193418,-47.13798033595519,68.11545529374528,2.610832970267431,29.78866615682411,-1.18779236899202e-003,8.650107123934913e-003,4.977456491834603e-002,-5.333822167782269e-002,3.893911520493915e-003,0,0,0
frame000198.png,15.11032174566599,-17.40634025374287,23.09129713567584,-44.13632527958313,67.00335080651342,3.989128181156276,29.83779742943187,-9.175849627225929e-004,6.923961619510038e-003,5.692228891569229e-002,-5.032712780355043e-002,-4.791138877599142e-002,0,0,0
frame000199.png,15.41709404755652,-16.42340301044432,23.09570103026077,-41.43784360578654,66.17726984361978,5.266448381589298,29.76060371259651,-2.103978785899344e-003,6.259181447635103e-003,8.648735877905335e-002,-0.2100412702103572,0.1988783689377595,0,0,0
frame000200.png,15.51227568806808,-15.95158272412337,23.00986354922603,-39.5891746178699,65.44785480256587,6.25162803129622,29.7069970716943,-1.231910475637081e-003,8.068903167284317e-003,0.1008513789821203,-0.2468718701593714,0.2166903013124118,0,0,0
frame000201.png,15.47753865103007,-15.96130077187104,23.02428149778097,-38.44855721581771,64.78512047606421,7.082622156438022,29.79096401256637,-2.966648008809125e-003,8.654993919715068e-003,0.1011389664641867,-0.2570903104207681,0.2613037799491979,0,0,0
